,City,Latitude,Longitude,Max_Temps,Humidity,Cloudiness,Wind_Speed,Country,Date,Max_Temps_in_Fahrenheit,Imperial_Wind_Speed
0,Mackay,-21.15,149.2,297.62,35,4,4.12,AU,1623981388,76.05,9.23
1,Tromsø,69.6496,18.957,282.51,93,75,0.0,NO,1623981391,48.85,0.0
2,Mataura,-46.1927,168.8643,281.19,75,7,3.24,NZ,1623981393,46.47,7.26
3,Chapleau,47.8405,-83.4034,295.2,49,75,3.09,CA,1623981396,71.69,6.92
4,Longyearbyen,78.2186,15.6401,277.06,65,75,5.66,SJ,1623981399,39.04,12.68
5,Chokurdakh,70.6333,147.9167,283.86,47,100,2.3,RU,1623981401,51.28,5.15
6,George Town,5.4112,100.3354,302.11,83,20,0.89,MY,1623981110,84.13,1.99
7,Hilo,19.7297,-155.09,297.73,94,91,2.74,US,1623981297,76.24,6.14
8,Avarua,-21.2078,-159.775,300.18,78,75,4.63,CK,1623981408,80.65,10.37
9,Pundaguitan,6.3711,126.1689,301.98,68,13,1.57,PH,1623981411,83.89,3.52
10,Buala,-8.145,159.5921,302.41,69,15,4.77,SB,1623981413,84.67,10.68
11,Upernavik,72.7868,-56.1549,274.63,71,2,2.68,GL,1623981416,34.66,6.0
12,Butaritari,3.0707,172.7902,301.76,69,64,5.32,KI,1623981419,83.5,11.92
13,Cherskiy,68.75,161.3,283.88,55,100,3.26,RU,1623981421,51.31,7.3
14,New Norfolk,-42.7826,147.0587,287.36,88,100,0.45,AU,1623981424,57.58,1.01
15,Okhotsk,59.3833,143.3,290.3,62,29,3.2,RU,1623981426,62.87,7.17
16,Ushuaia,-54.8,-68.3,274.96,87,0,1.03,AR,1623981429,35.26,2.31
17,Codrington,-38.2667,141.9667,287.44,78,17,7.29,AU,1623981431,57.72,16.33
18,Uttiramerūr,12.6,79.7667,302.84,47,100,4.06,IN,1623981434,85.44,9.09
19,Pochutla,15.7432,-96.4661,298.61,96,100,4.06,MX,1623981436,77.83,9.09
20,Thompson,55.7435,-97.8558,280.24,100,90,3.6,CA,1623981276,44.76,8.06
21,Tasiilaq,65.6145,-37.6368,270.93,74,19,2.17,GL,1623981441,28.0,4.86
22,Vaini,-21.2,-175.2,300.24,83,40,2.57,TO,1623981443,80.76,5.76
23,Tevaitoa,-16.7833,-151.5,299.84,72,63,7.98,PF,1623981446,80.04,17.88
24,Safi,32.2994,-9.2372,292.16,87,100,2.51,MA,1623981449,66.22,5.62
25,Albany,42.6001,-73.9662,290.08,74,8,2.47,US,1623981191,62.47,5.53
26,Olinda,-8.0089,-34.8553,295.0,94,75,4.12,BR,1623981453,71.33,9.23
27,Angoram,-4.0625,144.0661,304.12,59,87,0.8,PG,1623981456,87.75,1.79
28,Iaciara,-14.0958,-46.6317,293.45,51,11,1.51,BR,1623981458,68.54,3.38
29,Hambantota,6.1241,81.1185,298.34,100,0,2.57,LK,1623981461,77.34,5.76
30,Bratsk,56.1325,101.6142,294.42,48,4,1.18,RU,1623981463,70.29,2.64
31,Ixtapa,20.7,-105.2,301.61,83,98,1.34,MX,1623981386,83.23,3.0
32,Navahrudak,53.6,25.8333,286.32,91,50,2.67,BY,1623981468,55.71,5.98
33,Cássia,-20.5831,-46.9219,287.05,63,50,0.86,BR,1623981471,57.02,1.93
34,Koulikoro,14.0,-7.75,303.71,45,58,4.17,ML,1623981473,87.01,9.34
35,Gorontalo,0.5412,123.0595,303.33,65,58,1.72,ID,1623981476,86.32,3.85
36,Nome,64.5011,-165.4064,293.8,46,1,5.18,US,1623981365,69.17,11.6
37,Pingxiang,27.6167,113.85,301.37,80,100,2.21,CN,1623981480,82.8,4.95
38,Yulara,-25.2406,130.9889,284.06,58,100,6.17,AU,1623981483,51.64,13.82
39,Konëvo,62.1215,39.3192,285.36,68,99,3.17,RU,1623981486,53.98,7.1
40,Andenes,69.3143,16.1194,284.86,93,90,1.54,NO,1623981488,53.08,3.45
41,Alexander City,32.944,-85.9539,297.76,73,1,0.0,US,1623981491,76.3,0.0
42,Mnogovershinnyy,53.9353,139.9242,285.67,67,100,4.07,RU,1623981493,54.54,9.12
43,Nagai,38.1036,140.035,297.79,51,65,0.93,JP,1623981496,76.35,2.08
44,Kapaa,22.0752,-159.319,302.14,78,15,1.34,US,1623981498,84.18,3.0
45,Cape Town,-33.9258,18.4232,285.44,98,75,0.89,ZA,1623981340,54.12,1.99
46,Castro,-24.7911,-50.0119,284.0,86,94,1.32,BR,1623981503,51.53,2.96
47,Arraial do Cabo,-22.9661,-42.0278,294.0,68,100,5.43,BR,1623981325,69.53,12.16
48,Balaguer,41.7912,0.8109,289.36,96,71,1.05,ES,1623981508,61.18,2.35
49,Puerto Ayora,-0.7393,-90.3518,296.23,93,31,2.68,EC,1623981510,73.54,6.0
50,Punta Arenas,-53.15,-70.9167,273.21,93,75,2.57,CL,1623981365,32.11,5.76
51,Morondava,-20.2833,44.2833,292.97,72,1,4.38,MG,1623981515,67.68,9.81
52,Pozo Colorado,-23.4923,-58.7972,286.16,52,99,2.64,PY,1623981518,55.42,5.91
53,Naze,28.3667,129.4833,298.66,76,100,1.15,JP,1623981520,77.92,2.58
54,Norman Wells,65.282,-126.8329,299.17,27,40,5.14,CA,1623981523,78.84,11.51
55,Leninogorsk,54.6026,52.4609,284.94,83,8,3.5,RU,1623981526,53.22,7.84
56,Dikson,73.5069,80.5464,273.27,88,99,2.6,RU,1623981528,32.22,5.82
57,Pangoa,-12.1167,-73.0,291.78,90,30,1.26,PE,1623981530,65.53,2.82
58,Egvekinot,66.3167,-179.1667,274.92,95,100,3.65,RU,1623981533,35.19,8.18
59,Lindsay,36.203,-119.0882,312.47,7,1,2.48,US,1623981536,102.78,5.56
60,Kaitangata,-46.2817,169.8464,283.11,61,99,4.38,NZ,1623981538,49.93,9.81
61,Cockburn Town,21.4612,-71.1419,300.21,86,17,8.14,TC,1623981541,80.71,18.23
62,Kentau,43.5206,68.5094,302.16,16,5,2.81,KZ,1623981543,84.22,6.29
63,Qaanaaq,77.484,-69.3632,273.11,73,3,2.09,GL,1623981546,31.93,4.68
64,Saint Anthony,45.0205,-93.218,300.29,52,75,0.45,US,1623981549,80.85,1.01
65,Inhambane,-23.865,35.3833,292.24,86,0,0.9,MZ,1623981551,66.36,2.02
66,Lompoc,34.6391,-120.4579,304.23,72,1,5.14,US,1623981246,87.94,11.51
67,Gympie,-26.1898,152.665,293.32,32,72,4.24,AU,1623981556,68.31,9.5
68,Busselton,-33.65,115.3333,283.17,70,21,5.25,AU,1623981559,50.04,11.76
69,Takapau,-40.0333,176.35,284.11,63,52,0.96,NZ,1623981561,51.73,2.15
70,Airai,-8.9266,125.4092,296.33,41,44,2.04,TL,1623981564,73.72,4.57
71,Winnemucca,40.973,-117.7357,305.31,10,50,2.83,US,1623981566,89.89,6.34
72,Bambous Virieux,-20.3428,57.7575,294.38,76,35,6.26,MU,1623981569,70.21,14.02
73,North Bend,43.4065,-124.2243,292.55,79,0,0.45,US,1623981571,66.92,1.01
74,Alofi,-19.0595,-169.9187,300.09,78,75,3.09,NU,1623981574,80.49,6.92
75,Hualmay,-11.0964,-77.6139,291.69,87,46,4.44,PE,1623981576,65.37,9.95
76,Rocha,-34.4833,-54.3333,279.75,79,78,2.71,UY,1623981507,43.88,6.07
77,Barrow,71.2906,-156.7887,285.19,50,67,4.32,US,1623981333,53.67,9.68
78,Yellowknife,62.456,-114.3525,291.44,45,20,4.12,CA,1623981583,64.92,9.23
79,Ancud,-41.8697,-73.8203,275.61,79,0,3.44,CL,1623981585,36.43,7.71
80,La Santisima Trinidad,-14.8333,-64.9,290.58,80,8,2.68,BO,1623981588,63.37,6.0
81,Vilyuysk,63.7553,121.6247,297.58,34,100,2.96,RU,1623981591,75.97,6.63
82,Yumen,40.2833,97.2,296.02,14,95,4.26,CN,1623981593,73.17,9.54
83,Sandnessjøen,66.0217,12.6316,284.14,98,100,2.83,NO,1623981596,51.78,6.34
84,Kargasok,59.0556,80.8572,291.98,70,99,3.18,RU,1623981598,65.89,7.12
85,Cabo San Lucas,22.8909,-109.9124,308.76,67,3,8.79,MX,1623981601,96.1,19.69
86,Fortuna,40.5982,-124.1573,299.92,67,1,1.79,US,1623981604,80.19,4.01
87,Ribeira Grande,38.5167,-28.7,291.5,68,100,3.08,PT,1623981607,65.03,6.9
88,Portland,45.5234,-122.6762,301.71,37,3,1.34,US,1623981458,83.41,3.0
89,Marsá Maţrūḩ,31.3525,27.2453,294.18,65,0,2.32,EG,1623981612,69.85,5.2
90,Saint George,37.1041,-113.5841,314.41,11,52,1.79,US,1623981438,106.27,4.01
91,Rikitea,-23.1203,-134.9692,296.66,75,100,12.16,PF,1623981616,74.32,27.24
92,Sur,22.5667,59.5289,302.5,76,3,1.9,OM,1623981619,84.83,4.26
93,Kailua,21.4022,-157.7394,301.56,66,45,7.7,US,1623981622,83.14,17.25
94,Port Elizabeth,-33.918,25.5701,288.76,76,10,7.51,ZA,1623981624,60.1,16.82
95,Poso,-1.3959,120.7524,301.17,75,91,1.14,ID,1623981627,82.44,2.55
96,Jamestown,42.097,-79.2353,291.11,68,0,0.45,US,1623981580,64.33,1.01
97,Pevek,69.7008,170.3133,273.77,93,100,0.23,RU,1623981631,33.12,0.52
98,Kahului,20.8947,-156.47,299.74,76,69,4.92,US,1623981346,79.86,11.02
99,Nikolskoye,59.7035,30.7861,290.09,75,36,2.31,RU,1623981636,62.49,5.17
100,Bluff,-46.6,168.3333,280.82,68,8,8.1,NZ,1623981639,45.81,18.14
101,Bilma,18.6853,12.9164,304.83,11,0,2.37,NE,1623981641,89.02,5.31
102,Huarmey,-10.0681,-78.1522,292.36,88,11,4.17,PE,1623981644,66.58,9.34
103,Lucea,18.451,-78.1736,301.4,83,83,5.07,JM,1623981647,82.85,11.36
104,Chimbote,-9.0853,-78.5783,291.84,88,53,3.22,PE,1623981571,65.64,7.21
105,Makakilo City,21.3469,-158.0858,300.75,68,49,7.42,US,1623981652,81.68,16.62
106,Kolyvan',55.3053,82.7391,292.94,79,99,4.11,RU,1623981654,67.62,9.21
107,Arlit,18.7369,7.3853,304.87,18,6,3.77,NE,1623981657,89.1,8.44
108,Tiksi,71.6872,128.8694,288.55,53,65,1.93,RU,1623981659,59.72,4.32
109,Barinitas,8.7622,-70.4111,295.86,94,94,1.06,VE,1623981662,72.88,2.37
110,Bambanglipuro,-7.95,110.2833,292.93,77,29,2.73,ID,1623981665,67.6,6.12
111,Tuktoyaktuk,69.4541,-133.0374,277.09,78,95,5.28,CA,1623981667,39.09,11.83
112,Guiratinga,-16.3494,-53.7583,292.79,47,2,0.59,BR,1623981670,67.35,1.32
113,Mongoumba,3.6415,18.5936,293.82,94,100,0.53,CF,1623981672,69.21,1.19
114,Port Alfred,-33.5906,26.891,289.4,76,7,10.44,ZA,1623981675,61.25,23.39
115,Vila Franca do Campo,37.7167,-25.4333,290.38,76,93,2.75,PT,1623981678,63.01,6.16
116,Kavaratti,10.5669,72.642,301.6,77,89,10.38,IN,1623981680,83.21,23.25
117,Sitka,57.0531,-135.33,285.63,85,100,0.28,US,1623981682,54.46,0.63
118,Balaipungut,1.05,101.2833,297.38,85,90,2.17,ID,1623981685,75.61,4.86
119,Upata,8.0086,-62.3989,296.03,96,92,1.63,VE,1623981688,73.18,3.65
120,Angoche,-16.2325,39.9086,295.3,76,33,2.25,MZ,1623981690,71.87,5.04
121,Lebu,-37.6167,-73.65,283.56,83,0,0.92,CL,1623981692,50.74,2.06
122,Flinders,-34.5833,150.8552,291.69,56,9,5.36,AU,1623981695,65.37,12.01
123,Talnakh,69.4865,88.3972,286.58,94,100,3.8,RU,1623981698,56.17,8.51
124,Ahipara,-35.1667,173.1667,290.2,73,100,4.29,NZ,1623981700,62.69,9.61
125,Hermanus,-34.4187,19.2345,285.32,80,43,1.41,ZA,1623981702,53.91,3.16
126,Cidreira,-30.1811,-50.2056,285.21,82,28,2.39,BR,1623981705,53.71,5.35
127,Adrar,20.5022,-10.0711,302.72,18,7,8.17,MR,1623981708,85.23,18.3
128,Douentza,14.9951,-2.9517,305.51,30,11,5.42,ML,1623981710,90.25,12.14
129,Corinth,37.9407,22.9573,295.24,70,7,2.03,GR,1623981713,71.76,4.55
130,Ponta do Sol,32.6667,-17.1,292.5,60,37,1.72,PT,1623981715,66.83,3.85
131,Tuatapere,-46.1333,167.6833,280.83,80,3,2.13,NZ,1623981718,45.82,4.77
132,Marawi,7.9986,124.2928,299.62,64,100,0.64,PH,1623981720,79.65,1.43
133,Vallenar,-28.5708,-70.7581,286.01,71,0,0.89,CL,1623981723,55.15,1.99
134,Guerrero Negro,27.9769,-114.0611,293.92,71,4,7.71,MX,1623981725,69.39,17.27
135,Padang,-0.9492,100.3543,299.66,70,100,1.45,ID,1623981728,79.72,3.25
136,Grand Gaube,-20.0064,57.6608,294.47,80,9,2.24,MU,1623981730,70.38,5.02
137,Nanortalik,60.1432,-45.2371,276.14,84,57,1.74,GL,1623981733,37.38,3.9
138,São Sebastião do Caí,-29.5867,-51.3756,284.41,91,64,0.69,BR,1623981735,52.27,1.55
139,Garoowe,8.4054,48.4845,296.74,65,51,10.86,SO,1623981738,74.46,24.33
140,Kimbe,-5.5502,150.1429,304.64,53,83,0.84,PG,1623981741,88.68,1.88
141,Southbridge,42.0751,-72.0334,290.4,71,7,2.21,US,1623981743,63.05,4.95
142,Elko,41.0002,-115.5012,304.29,17,100,4.74,US,1623981746,88.05,10.62
143,Margate,51.3813,1.3862,289.99,99,100,1.34,GB,1623981748,62.31,3.0
144,Adelanto,34.5828,-117.4092,311.99,16,83,2.43,US,1623981751,101.91,5.44
145,Gazli,40.1333,63.45,301.39,11,0,3.26,UZ,1623981754,82.83,7.3
146,Nizhneangarsk,55.7833,109.55,286.24,59,100,2.64,RU,1623981756,55.56,5.91
147,Marsh Harbour,26.5412,-77.0636,300.21,76,100,3.21,BS,1623981676,80.71,7.19
148,Dzidzantun,21.25,-89.05,296.88,95,100,1.94,MX,1623981761,74.71,4.35
149,Pichayevo,53.2363,42.2032,286.21,85,0,3.33,RU,1623981764,55.51,7.46
150,Tessalit,20.1986,1.0114,305.48,11,0,3.13,ML,1623981731,90.19,7.01
151,Khatanga,71.9667,102.5,297.5,37,6,6.25,RU,1623981768,75.83,14.0
152,Antofagasta,-23.65,-70.4,289.89,73,2,2.9,CL,1623981770,62.13,6.5
153,Hobart,-42.8794,147.3294,287.6,90,75,1.34,AU,1623981773,58.01,3.0
154,Almeirim,-1.5233,-52.5817,296.34,96,68,1.37,BR,1623981776,73.74,3.07
155,Atuona,-9.8,-139.0333,299.58,79,26,8.95,PF,1623981778,79.57,20.05
156,Chui,-33.6971,-53.4616,282.52,84,95,3.75,UY,1623981781,48.87,8.4
157,Igarka,67.4667,86.5833,290.45,71,100,4.6,RU,1623981784,63.14,10.3
158,Baykit,61.67,96.37,293.98,51,86,1.98,RU,1623981786,69.49,4.44
159,Luanda,-8.8368,13.2343,294.03,90,85,3.31,AO,1623981649,69.58,7.41
160,Mahébourg,-20.4081,57.7,294.4,77,34,6.27,MU,1623981791,70.25,14.04
161,Daru,-9.0763,143.2092,299.41,86,100,6.43,PG,1623981794,79.27,14.4
162,Saskylakh,71.9167,114.0833,299.74,25,9,6.5,RU,1623981796,79.86,14.56
163,Altagracia de Orituco,9.8601,-66.3814,295.07,95,100,0.31,VE,1623981799,71.46,0.69
164,Caravelas,-17.7125,-39.2481,293.93,80,0,1.64,BR,1623981801,69.4,3.67
165,Moyale,3.5167,39.0584,292.59,59,62,5.09,KE,1623981804,66.99,11.4
166,Cocachacra,-17.0883,-71.7575,290.59,89,76,1.03,PE,1623981806,63.39,2.31
167,Zhezkazgan,47.8043,67.7144,301.02,24,19,2.43,KZ,1623981809,82.17,5.44
168,Touba,8.2833,-7.6833,293.78,94,15,1.93,CI,1623981811,69.13,4.32
169,Yar-Sale,66.8333,70.8333,280.07,65,83,7.69,RU,1623981814,44.46,17.23
170,Acapulco de Juárez,16.8634,-99.8901,298.93,92,100,6.01,MX,1623981769,78.4,13.46
171,Innisfail,-17.5333,146.0333,304.19,68,13,3.52,AU,1623981819,87.87,7.88
172,Ayan,56.45,138.1667,282.36,83,100,2.1,RU,1623981821,48.58,4.7
173,Esperance,-33.8667,121.9,285.92,64,0,4.3,AU,1623981824,54.99,9.63
174,Atherton,53.5237,-2.4935,286.31,87,100,0.89,GB,1623981827,55.69,1.99
175,Pisco,-13.7,-76.2167,291.18,88,0,5.66,PE,1623981319,64.45,12.68
176,Hofn,64.2539,-15.2082,279.41,80,100,2.91,IS,1623981335,43.27,6.52
177,Iquique,-20.2208,-70.1431,291.01,78,48,0.85,CL,1623981833,64.15,1.9
178,Westport,41.1415,-73.3579,294.79,73,1,0.45,US,1623981836,70.95,1.01
179,Jumla,29.2747,82.1838,289.08,95,100,0.51,NP,1623981785,60.67,1.14
180,Raja,8.4596,25.678,294.01,93,100,1.0,SS,1623981841,69.55,2.24
181,Doha,25.2867,51.5333,306.14,27,0,6.69,QA,1623981598,91.38,14.99
182,Pont-Audemer,49.35,0.5167,292.97,94,97,2.83,FR,1623981604,67.68,6.34
183,Dubbo,-32.25,148.6167,284.22,87,90,5.14,AU,1623981848,51.93,11.51
184,San Patricio,28.017,-97.5169,303.62,67,78,3.53,US,1623981850,86.85,7.91
185,Bingöl,38.8847,40.4939,287.44,56,0,3.12,TR,1623981853,57.72,6.99
186,Strunino,56.3833,38.5667,286.52,80,42,1.27,RU,1623981855,56.07,2.84
187,Hokitika,-42.7167,170.9667,285.65,50,21,3.48,NZ,1623981858,54.5,7.8
188,Vestmannaeyjar,63.4427,-20.2734,279.48,79,100,1.89,IS,1623981861,43.39,4.23
189,Severo-Kuril'sk,50.6789,156.125,280.52,90,75,6.34,RU,1623981863,45.27,14.2
190,Kununurra,-15.7667,128.7333,301.14,24,32,5.14,AU,1623981866,82.38,11.51
191,Lüderitz,-26.6481,15.1594,290.38,46,0,3.16,NA,1623981868,63.01,7.08
192,Acaraú,-2.8856,-40.12,298.88,85,13,5.2,BR,1623981871,78.31,11.65
193,Auki,-8.7676,160.7034,301.87,73,25,3.23,SB,1623981874,83.7,7.24
194,Bom Jesus da Lapa,-13.255,-43.4181,296.63,50,16,2.49,BR,1623981876,74.26,5.58
195,Dandong,40.1292,124.3947,296.98,53,99,1.59,CN,1623981879,74.89,3.56
196,Mossendjo,-2.9506,12.7261,293.04,99,100,0.85,CG,1623981882,67.8,1.9
197,Lorengau,-2.0226,147.2712,302.64,63,50,2.59,PG,1623981884,85.08,5.8
198,Torbay,47.6666,-52.7314,287.31,89,100,5.95,CA,1623981887,57.49,13.33
199,Dilla,6.41,38.31,288.13,90,98,1.42,ET,1623981889,58.96,3.18
200,Biak,-0.9131,122.8766,300.65,73,54,2.83,ID,1623981892,81.5,6.34
201,Gimbi,9.1667,35.8333,284.54,97,98,0.5,ET,1623981617,52.5,1.12
202,Hasaki,35.7333,140.8333,302.14,71,33,2.61,JP,1623981897,84.18,5.85
203,Teshie,5.5836,-0.1072,299.65,75,100,5.03,GH,1623981899,79.7,11.27
204,Linhares,-19.3911,-40.0722,291.37,93,0,1.77,BR,1623981749,64.8,3.96
205,Anadyr,64.75,177.4833,284.43,58,0,6.0,RU,1623981905,52.3,13.44
206,Languyan,5.2618,120.0807,301.25,84,96,2.72,PH,1623981907,82.58,6.09
207,Mantiquil,9.1667,123.05,300.99,71,97,1.64,PH,1623981910,82.11,3.67
208,Leningradskiy,69.3833,178.4167,278.54,85,100,2.5,RU,1623981913,41.7,5.6
209,Havre-St-Pierre,50.2334,-63.5986,283.35,100,90,1.54,CA,1623981915,50.36,3.45
210,Miyazu,35.5333,135.1833,294.46,83,100,3.36,JP,1623981918,70.36,7.53
211,Bereda,43.2686,-7.5406,287.27,100,100,2.32,ES,1623981920,57.42,5.2
212,San Quintín,30.4833,-115.95,293.87,74,1,3.22,MX,1623981923,69.3,7.21
213,Laguna,38.421,-121.4238,315.32,16,1,1.34,US,1623981747,107.91,3.0
214,Poum,-20.2333,164.0167,297.17,83,90,4.3,NC,1623981928,75.24,9.63
215,Broome,42.2506,-75.833,288.41,81,24,1.04,US,1623981930,59.47,2.33
216,Lakes Entrance,-37.8811,147.981,283.25,95,100,6.23,AU,1623981933,50.18,13.96
217,Robertsport,6.7533,-11.3686,299.83,80,98,3.34,LR,1623981936,80.02,7.48
218,Provideniya,64.3833,-173.3,280.21,76,75,3.0,RU,1623981938,44.71,6.72
219,Road Town,18.4167,-64.6167,301.2,82,85,11.12,VG,1623981941,82.49,24.91
220,Lavrentiya,65.5833,-171.0,279.56,86,100,3.48,RU,1623981943,43.54,7.8
221,Dingle,10.9995,122.6711,303.71,68,36,2.37,PH,1623981946,87.01,5.31
222,Xining,36.6167,101.7667,286.75,56,100,1.31,CN,1623981949,56.48,2.93
223,Bafia,4.75,11.2333,292.96,99,99,0.48,CM,1623981951,67.66,1.08
224,Krasnyy Chikoy,50.3643,108.7512,290.33,50,43,8.48,RU,1623981954,62.92,19.0
225,Mar del Plata,-38.0023,-57.5575,281.0,77,40,1.34,AR,1623981957,46.13,3.0
226,Kanniyākumāri,8.0833,77.5667,299.88,82,100,7.81,IN,1623981959,80.11,17.49
227,Saint-Philippe,-21.3585,55.7679,293.92,85,57,5.56,RE,1623981962,69.39,12.45
228,Kloulklubed,7.0419,134.2556,303.43,72,21,0.95,PW,1623981964,86.5,2.13
229,Pakxan,18.3778,103.6601,301.78,75,38,0.83,LA,1623981967,83.53,1.86
230,Havelock,34.8791,-76.9013,297.56,83,82,2.44,US,1623981970,75.94,5.47
231,Grand-Lahou,5.1367,-5.0242,298.71,84,29,3.45,CI,1623981972,78.01,7.73
232,Moose Factory,51.2585,-80.6094,294.14,73,40,2.06,CA,1623981975,69.78,4.61
233,Puerto Madero,14.7208,-92.4215,298.26,100,40,0.0,MX,1623981978,77.2,0.0
234,Saint Paul Harbor,57.79,-152.4072,281.88,93,90,7.2,US,1623981980,47.71,16.13
235,Balkanabat,39.5108,54.3671,305.12,12,0,4.37,TM,1623981983,89.55,9.79
236,Faanui,-16.4833,-151.75,299.96,71,31,7.56,PF,1623981985,80.26,16.93
237,Pierre,44.3683,-100.351,300.66,26,1,3.6,US,1623981988,81.52,8.06
238,Silvino Lobos,12.3,124.8333,305.39,58,99,1.09,PH,1623981991,90.03,2.44
239,Lere,10.387,8.5726,294.59,86,48,1.0,NG,1623981993,70.59,2.24
240,Zyryanka,65.75,150.85,294.38,44,100,7.27,RU,1623981996,70.21,16.28
241,Rāzole,16.4833,81.8333,302.31,66,100,4.02,IN,1623981998,84.49,9.0
242,Timmins,48.4669,-81.3331,296.05,53,75,3.6,CA,1623981869,73.22,8.06
243,Klaksvík,62.2266,-6.589,279.66,88,100,5.44,FO,1623982003,43.72,12.19
244,Mauá,-23.6678,-46.4614,287.09,97,74,1.71,BR,1623982006,57.09,3.83
245,Agüimes,27.9054,-15.4461,293.5,78,40,8.23,ES,1623982008,68.63,18.44
246,Iisalmi,63.5592,27.1907,288.16,72,84,3.4,FI,1623982011,59.02,7.62
247,Bethel,41.3712,-73.414,291.98,64,1,2.57,US,1623981966,65.89,5.76
248,Port Macquarie,-31.4333,152.9167,292.53,42,2,4.46,AU,1623981982,66.88,9.99
249,Shimoda,34.6667,138.95,295.99,76,100,2.87,JP,1623982018,73.11,6.43
250,Tahe,52.3333,124.7333,294.21,39,93,5.13,CN,1623982021,69.91,11.49
251,Bosaso,11.2842,49.1816,304.59,52,95,0.87,SO,1623982023,88.59,1.95
252,Bengkulu,-3.8004,102.2655,299.85,70,75,0.51,ID,1623982026,80.06,1.14
253,Kumul,42.8,93.45,301.18,11,90,0.3,CN,1623982028,82.45,0.67
254,Meulaboh,4.1363,96.1285,300.35,72,98,1.19,ID,1623982031,80.96,2.67
255,Santa Isabel Rio Negro,-0.4139,-65.0192,294.96,99,32,0.94,BR,1623982034,71.26,2.11
256,Kapoeta,4.7717,33.5903,294.18,89,100,1.18,SS,1623982036,69.85,2.64
257,Areosa,41.7178,-8.8571,289.99,92,75,7.79,PT,1623982039,62.31,17.45
258,Greater Sudbury,46.49,-80.99,289.49,60,46,3.23,CA,1623981874,61.41,7.24
259,Nipawin,53.3668,-104.0009,286.09,76,94,4.88,CA,1623982044,55.29,10.93
260,Farafangana,-22.8167,47.8333,290.36,90,7,1.92,MG,1623982046,62.98,4.3
261,Thinadhoo,0.5333,72.9333,301.8,73,82,3.12,MV,1623982049,83.57,6.99
262,Pemangkat,1.1667,108.9667,300.86,69,54,1.5,ID,1623982051,81.88,3.36
263,Chato,-2.6378,31.7669,292.63,79,97,2.32,TZ,1623982054,67.06,5.2
264,Kemisē,10.7167,39.8667,295.08,45,94,1.68,ET,1623982057,71.47,3.76
265,Katsuura,35.1333,140.3,302.17,68,79,2.82,JP,1623982059,84.24,6.32
266,Darnah,32.767,22.6367,294.71,69,0,2.93,LY,1623982062,70.81,6.56
267,Tótkomlós,46.4167,20.7333,290.87,78,92,0.98,HU,1623982065,63.9,2.2
268,Bredasdorp,-34.5322,20.0403,284.42,79,68,1.01,ZA,1623982067,52.29,2.26
269,Ginir,7.1333,40.7,286.31,84,99,2.46,ET,1623982070,55.69,5.51
270,Saltillo,25.4167,-101.0,292.83,43,40,7.72,MX,1623982034,67.42,17.29
271,Aljezur,37.3191,-8.8033,288.87,89,81,4.68,PT,1623982075,60.3,10.48
272,Port Blair,11.6667,92.75,302.22,78,100,5.19,IN,1623982077,84.33,11.63
273,Cayenne,4.9333,-52.3333,297.64,90,0,0.0,GF,1623982080,76.08,0.0
274,Aloleng,16.1307,119.7824,302.95,71,21,3.65,PH,1623982082,85.64,8.18
275,Souillac,-20.5167,57.5167,294.46,82,23,5.79,MU,1623982085,70.36,12.97
276,Carnarvon,-24.8667,113.6333,290.19,41,0,6.17,AU,1623982088,62.67,13.82
277,Sjenica,43.2731,19.9994,283.53,91,6,1.01,RS,1623982090,50.68,2.26
278,Hobyo,5.3505,48.5268,298.02,86,100,10.3,SO,1623981974,76.77,23.07
279,Novikovo,51.1537,37.8879,288.57,85,1,5.65,RU,1623982095,59.76,12.66
280,Wheat Ridge,39.7661,-105.0772,305.47,23,75,0.45,US,1623982098,90.18,1.01
281,Yangi Marg`ilon,40.4272,71.7189,296.55,31,6,1.03,UZ,1623982100,74.12,2.31
282,Mogadishu,2.0371,45.3438,298.51,84,100,7.83,SO,1623982088,77.65,17.54
283,Kruisfontein,-34.0033,24.7314,286.97,80,0,5.6,ZA,1623982105,56.88,12.54
284,Maraã,-1.8333,-65.3667,295.29,98,47,1.0,BR,1623982108,71.85,2.24
285,Fort Nelson,58.8053,-122.7002,291.53,54,100,2.48,CA,1623982110,65.08,5.56
286,Sibolga,1.7427,98.7792,300.77,71,89,0.51,ID,1623982112,81.72,1.14
287,Bayamo,20.3792,-76.6433,300.44,91,100,2.06,CU,1623982115,81.12,4.61
288,Dekar,-21.5333,21.9333,284.35,36,0,2.23,BW,1623982118,52.16,5.0
289,Birin,26.8865,88.0718,291.37,93,96,1.61,NP,1623982120,64.8,3.61
290,Labytnangi,66.6572,66.4183,281.85,52,9,5.62,RU,1623982123,47.66,12.59
291,Mount Isa,-20.7333,139.5,292.02,32,77,7.2,AU,1623982125,65.97,16.13
292,Alekseyevsk,57.8406,108.3492,296.07,39,95,3.81,RU,1623982128,73.26,8.53
293,Kogon,39.7228,64.5517,297.95,38,0,2.06,UZ,1623982131,76.64,4.61
294,Isla Vista,34.4133,-119.861,306.55,88,90,2.06,US,1623982133,92.12,4.61
295,Sfântu Gheorghe,45.8667,25.7833,289.96,94,100,0.45,RO,1623982136,62.26,1.01
296,Bonthe,7.5264,-12.505,299.38,80,91,2.41,SL,1623982139,79.21,5.4
297,Ngunguru,-35.6167,174.5,291.57,70,100,2.62,NZ,1623982141,65.16,5.87
298,Atar,20.5169,-13.0499,302.93,20,0,3.74,MR,1623982144,85.6,8.38
299,Vostok,46.4856,135.8833,296.63,37,100,2.87,RU,1623982146,74.26,6.43
300,Chardara,41.2547,67.9692,298.03,30,0,1.84,KZ,1623982149,76.78,4.12
301,Kamenka,51.3223,42.7678,286.73,89,1,3.75,RU,1623982152,56.44,8.4
302,Seoul,37.5683,126.9778,295.38,94,90,3.09,KR,1623982101,72.01,6.92
303,Half Moon Bay,37.4636,-122.4286,311.05,66,1,10.29,US,1623982156,100.22,23.05
304,Platteville,42.7342,-90.4785,302.68,61,1,3.6,US,1623982159,85.15,8.06
305,Barcelona,41.3888,2.159,296.78,86,40,0.89,ES,1623981939,74.53,1.99
306,Bonavista,48.6499,-53.1147,284.17,84,100,7.3,CA,1623982164,51.84,16.35
307,Mbuji-Mayi,-6.15,23.6,292.01,37,25,2.05,CD,1623982166,65.95,4.59
308,Koluszki,51.7387,19.8199,290.91,79,0,3.18,PL,1623982120,63.97,7.12
309,Anan,33.9167,134.65,296.08,84,100,5.99,JP,1623982171,73.27,13.42
310,Kiryat Gat,31.61,34.7642,293.6,80,0,0.8,IL,1623982174,68.81,1.79
311,Minot,48.2325,-101.2963,299.7,23,1,6.69,US,1623982176,79.79,14.99
312,Iqaluit,63.7506,-68.5145,273.54,90,100,5.81,CA,1623982179,32.7,13.01
313,Ilulissat,69.2167,-51.1,279.16,70,75,1.03,GL,1623982181,42.82,2.31
314,Aklavik,68.2191,-135.0107,294.78,33,56,3.95,CA,1623982184,70.93,8.85
315,Darhan,49.4867,105.9228,292.42,39,0,3.03,MN,1623982186,66.69,6.79
316,Krasnosel'kup,65.7,82.4667,292.86,56,34,4.33,RU,1623982189,67.48,9.7
317,Ucluelet,48.9329,-125.5528,295.95,79,9,0.45,CA,1623982051,73.04,1.01
318,Nānākuli,21.3906,-158.1547,303.12,52,75,4.12,US,1623982194,85.95,9.23
319,Haines Junction,60.7522,-137.5108,293.12,30,99,2.4,CA,1623982196,67.95,5.38
320,Gijón,43.5357,-5.6615,288.71,94,100,1.79,ES,1623982199,60.01,4.01
321,Cotonou,6.3654,2.4183,299.76,82,100,5.3,BJ,1623982201,79.9,11.87
322,Yerofey Pavlovich,53.9667,121.9667,287.64,86,100,5.95,RU,1623982204,58.08,13.33
323,East London,-33.0153,27.9116,290.18,66,1,7.65,ZA,1623982207,62.65,17.14
324,Dauriya,49.9333,116.8667,284.11,90,100,7.08,RU,1623982209,51.73,15.86
325,Guane,22.2025,-84.0875,298.88,88,100,3.45,CU,1623982212,78.31,7.73
326,Alta Floresta,-9.8756,-56.0861,298.01,59,62,0.64,BR,1623982215,76.75,1.43
327,Los Algarrobos,8.5,-82.4333,299.51,90,100,1.06,PA,1623982217,79.45,2.37
328,Kavieng,-2.5744,150.7967,301.79,68,32,3.48,PG,1623982220,83.55,7.8
329,Petropavlovsk-Kamchatskiy,53.0452,158.6483,291.48,48,20,9.0,RU,1623982222,64.99,20.16
330,Hithadhoo,-0.6,73.0833,301.75,72,48,3.34,MV,1623982225,83.48,7.48
331,Vao,-22.6667,167.4833,295.24,76,16,1.69,NC,1623982228,71.76,3.79
332,Vardø,70.3705,31.1107,280.14,81,75,1.54,NO,1623982230,44.58,3.45
333,Darłowo,54.421,16.4107,291.38,74,1,5.22,PL,1623982233,64.81,11.69
334,Visnes,59.3556,5.2242,285.69,94,90,8.23,NO,1623982235,54.57,18.44
335,Astoria,46.1879,-123.8313,297.43,66,1,0.45,US,1623982238,75.7,1.01
336,Chapais,49.7834,-74.8492,292.03,61,100,2.77,CA,1623982241,65.98,6.2
337,Baza,37.4907,-2.7726,289.67,67,100,0.55,ES,1623982243,61.74,1.23
338,Kondinskoye,59.6481,67.41,282.81,58,55,7.89,RU,1623982246,49.39,17.67
339,Coahuayana Viejo,18.7333,-103.6833,297.86,83,100,1.65,MX,1623982249,76.48,3.7
340,Hamilton,39.1834,-84.5333,296.58,68,1,1.91,US,1623981616,74.17,4.28
341,Sardārshahr,28.4333,74.4833,305.34,45,49,2.49,IN,1623982253,89.94,5.58
342,Willmar,45.1219,-95.0433,299.16,41,1,2.57,US,1623982256,78.82,5.76
343,Hurghada,27.2574,33.8129,296.55,50,0,9.46,EG,1623982259,74.12,21.19
344,San Lorenzo,-25.3333,-57.5333,283.67,82,0,3.09,PY,1623982261,50.94,6.92
345,Umm Kaddadah,13.6017,26.6876,300.99,46,80,3.16,SD,1623982264,82.11,7.08
346,Carbondale,37.7273,-89.2168,301.34,71,1,2.57,US,1623982266,82.74,5.76
347,Manzhouli,49.6,117.4333,284.02,91,100,6.14,CN,1623982269,51.57,13.75
348,Podosinovets,60.2776,47.0659,282.57,72,8,1.55,RU,1623982272,48.96,3.47
349,Abu Samrah,35.3029,37.1841,290.07,81,0,3.46,SY,1623982274,62.46,7.75
350,Tateyama,34.9833,139.8667,297.58,69,100,3.26,JP,1623982277,75.97,7.3
351,Nyagan,62.1406,65.3936,283.61,47,17,4.52,RU,1623982280,50.83,10.12
352,Sarkand,45.41,79.9186,298.16,31,92,1.57,KZ,1623982282,77.02,3.52
353,Narsaq,60.9167,-46.05,278.27,72,17,1.96,GL,1623982284,41.22,4.39
354,Río Cuarto,-33.1307,-64.3499,273.61,68,100,2.93,AR,1623982287,32.83,6.56
355,Mubende,0.5606,31.39,289.79,98,100,0.71,UG,1623982289,61.95,1.59
356,Belle Fourche,44.6714,-103.8522,303.42,27,51,5.35,US,1623982292,86.49,11.98
357,Ostrovnoy,68.0531,39.5131,284.76,70,100,6.73,RU,1623982295,52.9,15.08
358,Amuntai,-2.4177,115.2494,298.81,87,100,0.44,ID,1623982297,78.19,0.99
359,Chicama,-7.8447,-79.1469,291.45,82,90,2.47,PE,1623982300,64.94,5.53
360,Amberley,39.2048,-84.428,296.68,67,1,1.54,US,1623982303,74.35,3.45
361,Kiunga,-6.1219,141.2906,301.92,71,91,1.28,PG,1623982305,83.79,2.87
362,Vestmanna,62.1564,-7.1664,278.66,93,75,5.66,FO,1623982307,41.92,12.68
363,Jambi City,-1.6,103.6167,296.76,95,100,1.34,ID,1623982310,74.5,3.0
364,Nouakchott,18.0858,-15.9785,298.11,71,5,5.23,MR,1623982284,76.93,11.72
365,Penzance,50.1186,-5.5371,287.46,86,71,7.98,GB,1623982314,57.76,17.88
366,Guangyuan,32.442,105.823,290.97,88,100,2.05,CN,1623982317,64.08,4.59
367,Bandarbeyla,9.4942,50.8122,298.3,70,90,11.85,SO,1623982319,77.27,26.54
368,Jalu,29.0331,21.5482,299.45,29,0,2.45,LY,1623982322,79.34,5.49
369,Mānsa,29.9833,75.3833,304.75,50,89,2.75,IN,1623982325,88.88,6.16
370,Yantal',56.8471,105.2542,294.4,41,100,2.06,RU,1623982327,70.25,4.61
371,Sanski Most,44.7653,16.6656,289.51,73,35,1.76,BA,1623982330,61.45,3.94
372,Qui Nhon,13.7667,109.2333,305.52,53,12,2.04,VN,1623982332,90.27,4.57
373,Jeypore,18.85,82.5833,295.66,92,100,4.18,IN,1623982335,72.52,9.36
374,Ürümqi,43.801,87.6005,298.68,21,0,3.0,CN,1623982338,77.95,6.72
375,Kenai,60.5544,-151.2583,290.94,45,1,5.66,US,1623982324,64.02,12.68
376,Şarkîkaraağaç,38.0794,31.3664,285.4,81,0,1.29,TR,1623982342,54.05,2.89
377,Basco,20.4487,121.9702,302.1,84,3,10.6,PH,1623982345,84.11,23.74
378,Marystown,47.1666,-55.1483,285.85,100,100,3.32,CA,1623982348,54.86,7.44
379,Kokopo,-4.352,152.2633,302.44,60,85,1.77,PG,1623982350,84.72,3.96
380,Saint-Louis,16.3333,-15.0,298.58,50,65,4.82,SN,1623982353,77.77,10.8
381,Pingdingshan,33.7385,113.3012,291.46,86,100,1.61,CN,1623982356,64.96,3.61
382,Synya,65.3718,58.0387,282.56,55,12,2.48,RU,1623982358,48.94,5.56
383,Komatsu,36.4026,136.4509,300.77,60,89,1.88,JP,1623982361,81.72,4.21
384,Homer,59.6425,-151.5483,286.36,64,90,2.57,US,1623982363,55.78,5.76
385,Te Anau,-45.4167,167.7167,278.72,77,16,0.37,NZ,1623982366,42.03,0.83
386,Praia,14.9215,-23.5087,295.45,83,40,7.72,CV,1623982369,72.14,17.29
387,Yatou,37.15,122.3833,299.28,56,97,2.93,CN,1623982371,79.03,6.56
388,Dombarovskiy,50.7587,59.5386,290.55,65,37,7.8,RU,1623982374,63.32,17.47
389,Honningsvåg,70.9821,25.9704,279.89,81,81,3.99,NO,1623982377,44.13,8.94
390,Elhovo,42.1667,26.5667,289.38,91,98,1.32,BG,1623982379,61.21,2.96
391,Novyy Buyan,53.6861,50.0469,288.24,80,3,3.74,RU,1623982382,59.16,8.38
392,North Adams,42.7009,-73.1087,289.93,67,1,0.0,US,1623982384,62.2,0.0
393,Pinega,64.7001,43.3936,285.47,48,98,4.76,RU,1623982387,54.18,10.66
394,Srednekolymsk,67.45,153.6833,290.24,40,100,6.99,RU,1623982335,62.76,15.66
395,The Valley,18.217,-63.0578,300.98,82,100,10.73,AI,1623982392,82.09,24.04
396,Mocuba,-16.8392,36.9856,290.74,85,27,1.33,MZ,1623982394,63.66,2.98
397,China,25.7,-99.2333,304.68,40,72,6.0,MX,1623982397,88.75,13.44
398,Mezhdurechensk,53.6942,88.0603,292.3,81,36,1.18,RU,1623982399,66.47,2.64
399,Sinnamary,5.3833,-52.95,298.41,86,46,2.45,GF,1623982402,77.47,5.49
400,Grindavik,63.8424,-22.4338,279.41,75,75,7.2,IS,1623982404,43.27,16.13
401,Sept-Îles,50.2001,-66.3821,283.85,96,40,3.33,CA,1623982407,51.26,7.46
402,Alyangula,-13.8483,136.4192,299.88,58,9,7.8,AU,1623982409,80.11,17.47
403,Ketchikan,55.3422,-131.6461,284.98,93,100,1.15,US,1623982412,53.29,2.58
404,Buraidah,26.326,43.975,298.11,20,0,4.03,SA,1623982144,76.93,9.03
405,Bayir,37.2687,28.2167,286.44,73,1,1.61,TR,1623982416,55.92,3.61
406,Mangai,-4.05,19.5333,295.05,48,87,0.89,CD,1623982419,71.42,1.99
407,Barra do Garças,-15.89,-52.2567,292.65,44,8,1.12,BR,1623982422,67.1,2.51
408,Progreso,21.2833,-89.6667,298.21,92,99,4.51,MX,1623982277,77.11,10.1
409,La Rioja,42.25,-2.5,285.4,82,68,1.52,ES,1623982426,54.05,3.4
410,Puerto Quijarro,-17.7833,-57.7667,288.14,81,0,3.2,BO,1623982429,58.98,7.17
411,Medeiros Neto,-17.3739,-40.2206,290.91,91,4,2.59,BR,1623982432,63.97,5.8
412,Amboasary,-25.0333,46.3833,290.39,73,0,1.86,MG,1623982434,63.03,4.17
413,Satuba,-9.5633,-35.8244,296.6,88,0,3.09,BR,1623982309,74.21,6.92
414,Necochea,-38.5473,-58.7368,277.61,60,96,2.14,AR,1623982439,40.03,4.79
415,Maun,-19.9833,23.4167,284.86,44,0,1.96,BW,1623982442,53.08,4.39
416,Saldanha,-33.0117,17.9442,287.09,82,0,3.89,ZA,1623982444,57.09,8.71
417,Liberty,31.8335,-81.5004,299.97,84,1,1.79,US,1623982447,80.28,4.01
418,Karratha,-20.7377,116.8463,294.82,35,17,8.46,AU,1623982169,71.01,18.95
419,São João da Barra,-21.6403,-41.0511,292.43,87,29,3.99,BR,1623982451,66.7,8.94
420,High Rock,26.6208,-78.2833,298.16,72,100,3.23,BS,1623982454,77.02,7.24
421,Flin Flon,54.7682,-101.865,280.69,95,100,2.89,CA,1623982456,45.57,6.47
422,Santa Cruz,30.4202,-9.5982,293.4,81,100,1.16,MA,1623982458,68.45,2.6
423,Kiama,-34.6833,150.8667,291.8,53,15,4.47,AU,1623982224,65.57,10.01
424,Hong Kong,22.2855,114.1577,306.46,74,52,4.02,HK,1623982214,91.96,9.0
425,Malé,4.1748,73.5089,301.41,75,92,5.13,MV,1623982374,82.87,11.49
426,Wanaka,-44.7,169.15,278.91,67,39,1.24,NZ,1623982467,42.37,2.78
427,Ambon City,-3.6954,128.1814,297.23,94,40,4.12,ID,1623982469,75.34,9.23
428,Osorno,-40.5667,-73.15,272.32,100,0,1.54,CL,1623982472,30.51,3.45
429,Kerrobert,51.9168,-109.1348,284.96,70,100,7.93,CA,1623982475,53.26,17.76
430,Sargatskoye,55.6101,73.4972,294.34,67,33,4.09,RU,1623982477,70.14,9.16
431,Tongchuanshi,35.0806,109.0897,291.48,64,100,0.74,CN,1623982479,64.99,1.66
432,Saint-Augustin,51.226,-58.6502,281.22,96,41,4.03,CA,1623982482,46.53,9.03
433,Teknāf,20.8624,92.3058,298.5,92,100,5.66,BD,1623982484,77.63,12.68
434,Winneba,5.3511,-0.6231,298.71,79,77,4.16,GH,1623982487,78.01,9.32
435,Balikpapan,-1.2675,116.8289,297.7,100,40,2.57,ID,1623982489,76.19,5.76
436,Kadoma,34.7333,135.5833,298.81,60,100,0.48,JP,1623982492,78.19,1.08
437,Assiut,27.181,31.1837,296.56,48,0,6.34,EG,1623982494,74.14,14.2
438,Neftçala,39.3742,49.2472,299.04,66,0,10.55,AZ,1623982497,78.6,23.63
439,Lixouri,38.2019,20.4314,292.94,73,0,2.68,GR,1623982499,67.62,6.0
440,Ipixuna,-1.7625,-48.8043,297.12,97,98,1.7,BR,1623982502,75.15,3.81
441,Sola,-13.8833,167.55,300.47,76,14,7.76,VU,1623982505,81.18,17.38
442,Eydhafushi,5.1033,73.0708,301.45,78,63,6.21,MV,1623982508,82.94,13.91
443,Paramonga,-10.6667,-77.8333,292.03,88,58,4.17,PE,1623982510,65.98,9.34
444,College,64.8569,-147.8028,291.12,73,75,3.09,US,1623982366,64.35,6.92
445,Karaton,-6.3424,106.1045,303.13,71,50,0.45,ID,1623982515,85.96,1.01
446,Pajapan,18.25,-94.7,296.26,96,100,2.19,MX,1623982518,73.6,4.91
447,Suseni,46.6667,25.55,288.07,97,100,2.18,RO,1623982520,58.86,4.88
448,Evensk,61.95,159.2333,283.83,73,100,4.03,RU,1623982522,51.22,9.03
449,Steinbach am Taunus,50.1667,8.5667,295.31,78,0,2.57,DE,1623982525,71.89,5.76
450,Baoqing,46.3317,132.2111,288.81,92,100,8.13,CN,1623982528,60.19,18.21
451,Alice Springs,-23.7,133.8833,284.9,54,100,6.69,AU,1623982530,53.15,14.99
452,Chake Chake,-5.2459,39.7666,295.99,90,60,3.96,TZ,1623982533,73.11,8.87
453,Cururupu,-1.8283,-44.8683,296.72,91,46,1.45,BR,1623982535,74.43,3.25
454,Mossamedes,-15.1961,12.1522,291.25,77,6,1.99,AO,1623982538,64.58,4.46
455,Kenscoff,18.4506,-72.2869,294.23,74,51,1.54,HT,1623982541,69.94,3.45
456,Kasempa,-13.4584,25.8338,283.51,64,5,2.42,ZM,1623982543,50.65,5.42
457,Udachny,66.4167,112.4,297.17,31,37,3.19,RU,1623982545,75.24,7.15
458,Madimba,-10.4,40.3333,294.44,91,92,4.28,TZ,1623982548,70.32,9.59
459,Chaadayevka,53.1427,45.9122,288.52,84,75,3.94,RU,1623982551,59.67,8.83
460,Clyde River,70.4692,-68.5914,274.28,93,90,3.6,CA,1623982553,34.03,8.06
461,Nizwá,22.9333,57.5333,306.75,17,0,1.81,OM,1623982556,92.48,4.05
462,Bima,-8.4667,118.7167,303.19,58,20,2.32,ID,1623982559,86.07,5.2
463,Ngama,11.7833,17.1667,299.71,65,98,3.91,TD,1623982561,79.81,8.76
464,Berekum,7.4534,-2.584,294.19,98,80,1.71,GH,1623982564,69.87,3.83
465,Capitán Bado,-23.2667,-55.5333,284.7,72,73,2.71,PY,1623982566,52.79,6.07
466,Córdoba,-31.4135,-64.1811,279.13,90,90,1.03,AR,1623982552,42.76,2.31
467,Tazovsky,67.4667,78.7,276.17,91,100,7.72,RU,1623982572,37.44,17.29
468,Maţāy,28.419,30.7792,294.9,62,0,6.91,EG,1623982571,71.15,15.48
469,Mandalgovi,45.7625,106.2708,290.05,27,0,6.48,MN,1623982576,62.42,14.52
470,Dunedin,-45.8742,170.5036,281.37,60,69,3.13,NZ,1623982579,46.8,7.01
471,La Tuque,47.4334,-72.7824,287.29,58,34,1.54,CA,1623982581,57.45,3.45
472,Shimokizukuri,40.8061,140.3861,297.62,57,15,2.44,JP,1623982584,76.05,5.47
473,Fredericksburg,38.3032,-77.4605,292.71,72,1,0.0,US,1623982376,67.21,0.0
474,Miramar,25.9873,-80.2323,301.49,81,1,3.6,US,1623982588,83.01,8.06
475,Faya,18.3851,42.4509,291.21,33,62,1.11,SA,1623982591,64.51,2.49
476,City of San Pedro,14.35,121.0167,306.1,65,40,3.6,PH,1623982594,91.31,8.06
477,Nadadores,27.05,-101.6,303.28,33,16,4.22,MX,1623982596,86.23,9.45
478,Mehrān,33.1222,46.1646,302.86,14,0,7.27,IR,1623982599,85.48,16.28
479,Panabá,21.2833,-88.2667,297.52,89,100,2.59,MX,1623982601,75.87,5.8
480,Sakakah,29.9697,40.2064,296.91,29,0,3.33,SA,1623982604,74.77,7.46
481,Sørland,67.667,12.6934,283.01,91,100,4.47,NO,1623982606,49.75,10.01
482,Durango,24.8333,-104.8333,291.25,53,89,1.95,MX,1623982542,64.58,4.37
483,Yanam,16.7333,82.2167,302.37,73,100,3.87,IN,1623982611,84.6,8.67
484,Pudozh,61.8099,36.5345,285.98,76,91,3.05,RU,1623982613,55.09,6.83
485,Muros,42.7762,-9.0603,288.28,89,100,6.07,ES,1623982616,59.23,13.6
486,Mieres,43.25,-5.7667,288.33,100,100,0.78,ES,1623982619,59.32,1.75
487,Salalah,17.0151,54.0924,300.2,94,20,1.03,OM,1623982621,80.69,2.31
488,Warrington,53.3925,-2.5802,286.63,86,100,0.45,GB,1623982624,56.26,1.01
489,Grand-Santi,4.25,-54.3833,295.74,99,100,1.07,GF,1623982627,72.66,2.4
490,San Andrés,12.5847,-81.7006,302.16,79,20,5.14,CO,1623982629,84.22,11.51
491,Farah,32.5,62.5,296.83,13,0,3.19,AF,1623982632,74.62,7.15
492,Svetlaya,46.5389,138.3297,288.04,87,100,1.63,RU,1623982634,58.8,3.65
493,Grão Mogol,-16.5594,-42.8897,290.69,55,80,1.08,BR,1623982637,63.57,2.42
494,Saint Augustine,29.8947,-81.3145,300.22,97,90,1.54,US,1623982361,80.73,3.45
495,Nong’an,44.382,125.1685,295.38,44,73,7.76,CN,1623982642,72.01,17.38
496,Broken Hill,-31.95,141.4333,286.17,65,57,8.89,AU,1623982644,55.44,19.91
497,Bărbăteşti,45.1833,24.1167,288.18,91,100,2.11,RO,1623982647,59.05,4.73
498,Karoi,-16.8099,29.6925,284.21,75,1,0.38,ZW,1623982649,51.91,0.85
499,Quatre Cocos,-20.2078,57.7625,294.31,77,28,6.35,MU,1623982652,70.09,14.22
500,Kwang Binh,17.4833,106.6,304.67,64,27,4.63,VN,1623982654,88.74,10.37
501,Bay Roberts,47.5999,-53.2648,287.4,90,100,2.24,CA,1623982657,57.65,5.02
502,Maniitsoq,65.4167,-52.9,276.54,80,100,2.28,GL,1623982660,38.1,5.11
503,Port Lincoln,-34.7333,135.8667,286.26,68,72,9.37,AU,1623982662,55.6,20.99
504,Los Llanos de Aridane,28.6585,-17.9182,292.01,88,0,8.23,ES,1623982665,65.95,18.44
505,Diu,20.7141,70.9822,303.1,71,12,6.09,IN,1623982667,85.91,13.64
506,Vila Velha,-20.3297,-40.2925,294.12,83,90,3.09,BR,1623982670,69.75,6.92
507,Maracaçumé,-2.0428,-45.9592,295.32,98,9,1.61,BR,1623982673,71.91,3.61
508,Bariloche,-41.1456,-71.3082,275.62,59,90,4.12,AR,1623982675,36.45,9.23
509,Praia,14.9215,-23.5087,295.45,83,40,7.72,CV,1623982678,72.14,17.29
510,Sivas Province,39.7916,37.0019,280.5,81,0,0.51,TR,1623982680,45.23,1.14
511,Beihai,21.4833,109.1,303.99,74,50,8.48,CN,1623982683,87.51,19.0
512,Piaçabuçu,-10.4056,-36.4344,296.63,76,0,4.1,BR,1623982685,74.26,9.18
513,Vung Tau,10.346,107.0843,301.76,74,49,3.4,VN,1623982445,83.5,7.62
514,Kangaatsiaq,68.3065,-53.4641,275.73,89,100,3.85,GL,1623982690,36.64,8.62
515,Constitución,-35.3333,-72.4167,284.63,84,0,1.71,CL,1623982693,52.66,3.83
516,Hūn,29.1268,15.9477,297.12,48,0,3.34,LY,1623982695,75.15,7.48
517,Hermon,44.8101,-68.9134,289.55,80,11,1.41,US,1623982698,61.52,3.16
518,Ryōtsu-minato,38.0833,138.4333,296.13,76,77,2.0,JP,1623982701,73.36,4.48
519,Fangshan,39.6983,115.9925,304.12,16,100,5.55,CN,1623982703,87.75,12.43
520,Erzurum Province,40.0,41.5,278.97,84,0,1.57,TR,1623982706,42.48,3.52
521,Bourail,-21.5667,165.4833,298.12,69,100,1.19,NC,1623982708,76.95,2.67
522,Kudahuvadhoo,2.6708,72.8944,301.55,76,90,4.04,MV,1623982711,83.12,9.05
523,Ballina,-28.8667,153.5667,293.25,50,2,4.84,AU,1623982714,68.18,10.84
524,Emerald,-23.5333,148.1667,293.34,40,58,6.95,AU,1623982716,68.34,15.57
525,San Joaquin,37.9333,-121.3011,314.47,19,1,3.6,US,1623982718,106.38,8.06
526,Baiquan,47.5833,126.0833,289.47,70,80,5.27,CN,1623982721,61.38,11.8
527,Bilibino,68.0546,166.4372,277.59,84,100,1.47,RU,1623982724,39.99,3.29
528,Ulladulla,-35.35,150.4667,291.41,50,100,4.04,AU,1623982726,64.87,9.05
529,Waipawa,-41.4122,175.5153,282.5,88,100,4.07,NZ,1623982729,48.83,9.12
530,Verkhnyaya Toyma,62.2349,44.9985,283.67,64,75,1.66,RU,1623982731,50.94,3.72
531,‘Ewa Beach,21.3156,-158.0072,303.12,54,75,4.12,US,1623982689,85.95,9.23
532,Cochrane,51.1834,-114.4687,290.5,45,40,5.14,CA,1623982507,63.23,11.51
533,Salinas,36.6777,-121.6555,310.6,61,1,8.23,US,1623982500,99.41,18.44
534,Tautira,-17.7333,-149.15,302.16,83,100,6.5,PF,1623982740,84.22,14.56
535,Mweka,-4.85,21.5667,290.39,44,2,1.23,CD,1623982743,63.03,2.76
536,Barabai,-2.5833,115.3833,300.27,81,99,0.45,ID,1623982746,80.82,1.01
537,Matagami,49.7502,-77.6328,289.21,82,90,4.63,CA,1623982748,60.91,10.37
538,Vanimo,-2.6741,141.3028,302.0,67,100,1.96,PG,1623982751,83.93,4.39
539,Kisangani,0.5167,25.2,294.62,98,96,1.21,CD,1623982753,70.65,2.71
540,Cumanayagua,22.1494,-80.2022,300.38,92,100,1.83,CU,1623982756,81.01,4.1
541,Americana,-22.7392,-47.3314,287.76,82,1,3.05,BR,1623982758,58.3,6.83
542,Gedinne,49.9804,4.9367,294.61,97,100,1.36,BE,1623982761,70.63,3.05
543,Truth or Consequences,33.1284,-107.2528,307.28,16,1,4.12,US,1623982763,93.43,9.23
544,Jiayuguan City,39.8167,98.3,294.14,16,100,2.44,CN,1623982766,69.78,5.47
545,Itarema,-2.9248,-39.9167,299.22,83,16,5.16,BR,1623982768,78.93,11.56
546,Oriximiná,-1.7656,-55.8661,297.1,90,51,1.73,BR,1623982682,75.11,3.88
547,Jiazi,22.8779,116.067,303.8,72,7,7.7,CN,1623982773,87.17,17.25
